{
    "Mucsi Zsombor": {
        "name": "Mucsi Zsombor",
        "date": "1976-03-15",
        "time": "21:53",
        "year": 1976,
        "month": 3,
        "day": 15,
        "hour": 21,
        "minute": 53,
        "lat": "46.48",
        "lng": "19.03",
        "tz": "1.0"
    },
    "Aurobindo Ghose": {
        "name": "Aurobindo Ghose",
        "date": "1872-08-15",
        "time": "00:00",
        "year": 1872,
        "month": 8,
        "day": 15,
        "hour": 0,
        "minute": 0,
        "lat": "22.34",
        "lng": "88.22",
        "tz": "1.0"
    },
    "Maharishi Mahesh Yogi": {
        "name": "Maharishi Mahesh Yogi",
        "date": "1917-01-12",
        "time": "00:00",
        "year": 1917,
        "month": 1,
        "day": 12,
        "hour": 0,
        "minute": 0,
        "lat": "21.15",
        "lng": "79.09",
        "tz": "1.0"
    },
    "Mahatma Gandhi": {
        "name": "Mahatma Gandhi",
        "date": "1869-10-02",
        "time": "00:00",
        "year": 1869,
        "month": 10,
        "day": 2,
        "hour": 0,
        "minute": 0,
        "lat": "21.38",
        "lng": "69.36",
        "tz": "1.0"
    },
    "Pandit Sanjay Rath": {
        "name": "Pandit Sanjay Rath",
        "date": "1963-08-07",
        "time": "00:00",
        "year": 1963,
        "month": 8,
        "day": 7,
        "hour": 0,
        "minute": 0,
        "lat": "21.46",
        "lng": "83.98",
        "tz": "1.0"
    },
    "India India": {
        "name": "India India",
        "date": "1947-08-15",
        "time": "00:00",
        "year": 1947,
        "month": 8,
        "day": 15,
        "hour": 0,
        "minute": 0,
        "lat": "28.37",
        "lng": "77.13",
        "tz": "1.0"
    },
    "Prof. B. Suryanarai n Rao": {
        "name": "Prof. B. Suryanarai n Rao",
        "date": "1856-02-12",
        "time": "00:00",
        "year": 1856,
        "month": 2,
        "day": 12,
        "hour": 0,
        "minute": 0,
        "lat": "18.3",
        "lng": "83.9",
        "tz": "1.0"
    },
    "Prof. B. V. Raman": {
        "name": "Prof. B. V. Raman",
        "date": "1912-08-08",
        "time": "00:00",
        "year": 1912,
        "month": 8,
        "day": 8,
        "hour": 0,
        "minute": 0,
        "lat": "12.58",
        "lng": "77.35",
        "tz": "1.0"
    },
    "Ramakrishna Paramahansa": {
        "name": "Ramakrishna Paramahansa",
        "date": "1836-02-18",
        "time": "00:00",
        "year": 1836,
        "month": 2,
        "day": 18,
        "hour": 0,
        "minute": 0,
        "lat": "22.91",
        "lng": "87.65",
        "tz": "1.0"
    },
    "Ramana Maharishi": {
        "name": "Ramana Maharishi",
        "date": "1879-12-30",
        "time": "00:00",
        "year": 1879,
        "month": 12,
        "day": 30,
        "hour": 0,
        "minute": 0,
        "lat": "-78.15",
        "lng": "5.3",
        "tz": "1.0"
    },
    "Sarada Mata": {
        "name": "Sarada Mata",
        "date": "1853-12-22",
        "time": "00:00",
        "year": 1853,
        "month": 12,
        "day": 22,
        "hour": 0,
        "minute": 0,
        "lat": "23.1333",
        "lng": "87.5167",
        "tz": "1.0"
    },
    "Sri P. V. S. Chalapathi Rao (astrologer)": {
        "name": "Sri P. V. S. Chalapathi Rao (astrologer)",
        "date": "1933-07-15",
        "time": "00:00",
        "year": 1933,
        "month": 7,
        "day": 15,
        "hour": 0,
        "minute": 0,
        "lat": "-80.56",
        "lng": "5.3",
        "tz": "1.0"
    },
    "Sri Satya Sai Baba (Puttaparthy)": {
        "name": "Sri Satya Sai Baba (Puttaparthy)",
        "date": "1926-11-23",
        "time": "00:00",
        "year": 1926,
        "month": 11,
        "day": 23,
        "hour": 0,
        "minute": 0,
        "lat": "14.1667",
        "lng": "77.8",
        "tz": "1.0"
    },
    "Swami Chandrasekhara Saraswati": {
        "name": "Swami Chandrasekhara Saraswati",
        "date": "1894-05-20",
        "time": "00:00",
        "year": 1894,
        "month": 5,
        "day": 20,
        "hour": 0,
        "minute": 0,
        "lat": "12.835",
        "lng": "79.705",
        "tz": "1.0"
    },
    "Swami Jayendra Saraswati": {
        "name": "Swami Jayendra Saraswati",
        "date": "1935-07-18",
        "time": "00:00",
        "year": 1935,
        "month": 7,
        "day": 18,
        "hour": 0,
        "minute": 0,
        "lat": "12.835",
        "lng": "79.705",
        "tz": "1.0"
    },
    "Swami Narasimha Bharthi": {
        "name": "Swami Narasimha Bharthi",
        "date": "1858-03-11",
        "time": "00:00",
        "year": 1858,
        "month": 3,
        "day": 11,
        "hour": 0,
        "minute": 0,
        "lat": "-78.0",
        "lng": "5.12",
        "tz": "1.0"
    },
    "Swami Sivananda": {
        "name": "Swami Sivananda",
        "date": "1887-09-08",
        "time": "00:00",
        "year": 1887,
        "month": 9,
        "day": 8,
        "hour": 0,
        "minute": 0,
        "lat": "-77.4",
        "lng": "5.11",
        "tz": "1.0"
    },
    "Swami Vivekananda": {
        "name": "Swami Vivekananda",
        "date": "1863-01-12",
        "time": "00:00",
        "year": 1863,
        "month": 1,
        "day": 12,
        "hour": 0,
        "minute": 0,
        "lat": "-88.3",
        "lng": "5.54",
        "tz": "1.0"
    },
    "Bérczi Anna": {
        "name": "Bérczi Anna",
        "date": "1986-06-20",
        "time": "08:10",
        "year": 1986,
        "month": 6,
        "day": 20,
        "hour": 8,
        "minute": 10,
        "lat": "46.48",
        "lng": "19.03",
        "tz": "1.0"
    },
    "Pedersoli Carlo": {
        "name": "Pedersoli Carlo",
        "date": "1929-10-31",
        "time": "00:00",
        "year": 1929,
        "month": 10,
        "day": 31,
        "hour": 0,
        "minute": 0,
        "lat": "40.85",
        "lng": "14.27",
        "tz": "2.0"
    },
    "Bulsara Farouk": {
        "name": "Bulsara Farouk",
        "date": "1946-09-05",
        "time": "00:00",
        "year": 1946,
        "month": 9,
        "day": 5,
        "hour": 0,
        "minute": 0,
        "lat": "-6.16",
        "lng": "39.2",
        "tz": "1.0"
    },
    "Germanotta Stefani Joanne Angelina": {
        "name": "Germanotta Stefani Joanne Angelina",
        "date": "1986-03-28",
        "time": "00:00",
        "year": 1986,
        "month": 3,
        "day": 28,
        "hour": 0,
        "minute": 0,
        "lat": "40.71",
        "lng": "-74.01",
        "tz": "2.0"
    },
    "Guevara Ernesto": {
        "name": "Guevara Ernesto",
        "date": "1928-06-14",
        "time": "00:00",
        "year": 1928,
        "month": 6,
        "day": 14,
        "hour": 0,
        "minute": 0,
        "lat": "-32.95",
        "lng": "-60.65",
        "tz": "1.0"
    },
    "Hershlag Neta-Lee": {
        "name": "Hershlag Neta-Lee",
        "date": "1981-06-09",
        "time": "00:00",
        "year": 1981,
        "month": 6,
        "day": 9,
        "hour": 0,
        "minute": 0,
        "lat": "31.77",
        "lng": "35.21",
        "tz": "2.0"
    },
    "Tim Bergling": {
        "name": "Tim Bergling",
        "date": "1989-09-08",
        "time": "01:00",
        "year": 1989,
        "month": 9,
        "day": 8,
        "hour": 1,
        "minute": 0,
        "lat": "59.19",
        "lng": "18.05",
        "tz": "2.0"
    },
    "Einstein Albert": {
        "name": "Einstein Albert",
        "date": "1879-03-14",
        "time": "00:00",
        "year": 1879,
        "month": 3,
        "day": 14,
        "hour": 0,
        "minute": 0,
        "lat": "48.4",
        "lng": "9.99",
        "tz": "2.0"
    },
    "Curie Marie": {
        "name": "Curie Marie",
        "date": "1867-11-07",
        "time": "00:00",
        "year": 1867,
        "month": 11,
        "day": 7,
        "hour": 0,
        "minute": 0,
        "lat": "52.23",
        "lng": "21.01",
        "tz": "2.0"
    },
    "da Vinci Leonardo": {
        "name": "da Vinci Leonardo",
        "date": "1452-04-15",
        "time": "00:00",
        "year": 1452,
        "month": 4,
        "day": 15,
        "hour": 0,
        "minute": 0,
        "lat": "43.78",
        "lng": "10.86",
        "tz": "2.0"
    },
    "Kahlo Frida": {
        "name": "Kahlo Frida",
        "date": "1907-07-06",
        "time": "00:00",
        "year": 1907,
        "month": 7,
        "day": 6,
        "hour": 0,
        "minute": 0,
        "lat": "19.35",
        "lng": "-99.16",
        "tz": "2.0"
    },
    "Turner Tina": {
        "name": "Turner Tina",
        "date": "1939-11-26",
        "time": "00:00",
        "year": 1939,
        "month": 11,
        "day": 26,
        "hour": 0,
        "minute": 0,
        "lat": "35.85",
        "lng": "-89.4",
        "tz": "2.0"
    },
    "Gandhi Mahatma": {
        "name": "Gandhi Mahatma",
        "date": "1869-10-02",
        "time": "00:00",
        "year": 1869,
        "month": 10,
        "day": 2,
        "hour": 0,
        "minute": 0,
        "lat": "21.64",
        "lng": "69.6",
        "tz": "1.0"
    },
    "Zanta Zoltán": {
        "name": "Zanta Zoltán",
        "date": "1966-01-07",
        "time": "00:00",
        "year": 1966,
        "month": 1,
        "day": 7,
        "hour": 0,
        "minute": 0,
        "lat": "47.5",
        "lng": "19.04",
        "tz": "2.0"
    },
    "anyád anyád": {
        "name": "anyád anyád",
        "date": "1947-10-16",
        "time": "15:00",
        "year": 1947,
        "month": 10,
        "day": 16,
        "hour": 15,
        "minute": 0,
        "lat": "47.3",
        "lng": "19.05",
        "tz": "1.0"
    },
    "Jámbor Elizabeth": {
        "name": "Jámbor Elizabeth",
        "date": "2026-06-01",
        "time": "17:06",
        "year": 2026,
        "month": 6,
        "day": 1,
        "hour": 17,
        "minute": 6,
        "lat": "47.3",
        "lng": "19.05",
        "tz": "2.0"
    }
}